{"source":"tripupdate_v4","status":"success","timestamp":1766118960,"total_trains":26,"positions":[{"trip_id":"4211202G","train_number":"1202G","direction":"InnerLoop","status":"stopped","progress":0.0,"location":{"latitude":35.67129,"longitude":139.70261},"segment":{"prev_seq":26,"next_seq":26,"prev_station_id":"JR-East.Yamanote.Harajuku","next_station_id":"JR-East.Yamanote.Harajuku"},"times":{"now_ts":1766118960,"t0_departure":1766118960,"t1_arrival":1766118960},"debug":{"feed_timestamp":1766118933}},{"trip_id":"4211204G","train_number":"1204G","direction":"InnerLoop","status":"running","progress":0.3333,"location":{"latitude":35.731013,"longitude":139.722233},"segment":{"prev_seq":19,"next_seq":20,"prev_station_id":"JR-East.Yamanote.Otsuka","next_station_id":"JR-East.Yamanote.Ikebukuro"},"times":{"now_ts":1766118960,"t0_departure":1766118900,"t1_arrival":1766119080},"debug":{"feed_timestamp":1766118933}},{"trip_id":"4211208G","train_number":"1208G","direction":"InnerLoop","status":"stopped","progress":0.0,"location":{"latitude":35.6263,"longitude":139.72344},"segment":{"prev_seq":30,"next_seq":30,"prev_station_id":"JR-East.Yamanote.Gotanda","next_station_id":"JR-East.Yamanote.Gotanda"},"times":{"now_ts":1766118960,"t0_departure":1766118960,"t1_arrival":1766118960},"debug":{"feed_timestamp":1766118933}},{"trip_id":"4211210G","train_number":"1210G","direction":"InnerLoop","status":"stopped","progress":0.0,"location":{"latitude":35.63352,"longitude":139.71566},"segment":{"prev_seq":29,"next_seq":29,"prev_station_id":"JR-East.Yamanote.Meguro","next_station_id":"JR-East.Yamanote.Meguro"},"times":{"now_ts":1766118960,"t0_departure":1766118960,"t1_arrival":1766118960},"debug":{"feed_timestamp":1766118933}},{"trip_id":"4211212G","train_number":"1212G","direction":"InnerLoop","status":"running","progress":0.5,"location":{"latitude":35.677405,"longitude":139.70233},"segment":{"prev_seq":25,"next_seq":26,"prev_station_id":"JR-East.Yamanote.Yoyogi","next_station_id":"JR-East.Yamanote.Harajuku"},"times":{"now_ts":1766118960,"t0_departure":1766118900,"t1_arrival":1766119020},"debug":{"feed_timestamp":1766118933}},{"trip_id":"4211264G","train_number":"1264G","direction":"InnerLoop","status":"unknown","progress":null,"location":{"latitude":null,"longitude":null},"segment":{"prev_seq":1,"next_seq":31,"prev_station_id":"JR-East.Yamanote.Osaki","next_station_id":"JR-East.Yamanote.Osaki"},"times":{"now_ts":1766118960,"t0_departure":1766114567,"t1_arrival":1766118900},"debug":{"feed_timestamp":1766118933}},{"trip_id":"4211266G","train_number":"1266G","direction":"InnerLoop","status":"running","progress":0.5,"location":{"latitude":35.69546,"longitude":139.70024},"segment":{"prev_seq":23,"next_seq":24,"prev_station_id":"JR-East.Yamanote.ShinOkubo","next_station_id":"JR-East.Yamanote.Shinjuku"},"times":{"now_ts":1766118960,"t0_departure":1766118900,"t1_arrival":1766119020},"debug":{"feed_timestamp":1766118933}},{"trip_id":"4211268G","train_number":"1268G","direction":"InnerLoop","status":"running","progress":0.5,"location":{"latitude":35.71643,"longitude":139.70496},"segment":{"prev_seq":21,"next_seq":22,"prev_station_id":"JR-East.Yamanote.Mejiro","next_station_id":"JR-East.Yamanote.Takadanobaba"},"times":{"now_ts":1766118960,"t0_departure":1766118900,"t1_arrival":1766119020},"debug":{"feed_timestamp":1766118933}},{"trip_id":"4211300G","train_number":"1300G","direction":"InnerLoop","status":"running","progress":0.5,"location":{"latitude":35.640568,"longitude":139.744129},"segment":{"prev_seq":3,"next_seq":4,"prev_station_id":"JR-East.Yamanote.TakanawaGateway","next_station_id":"JR-East.Yamanote.Tamachi"},"times":{"now_ts":1766118960,"t0_departure":1766118900,"t1_arrival":1766119020},"debug":{"feed_timestamp":1766118933}},{"trip_id":"4211306G","train_number":"1306G","direction":"InnerLoop","status":"running","progress":0.5,"location":{"latitude":35.694905,"longitude":139.771765},"segment":{"prev_seq":9,"next_seq":10,"prev_station_id":"JR-East.Yamanote.Kanda","next_station_id":"JR-East.Yamanote.Akihabara"},"times":{"now_ts":1766118960,"t0_departure":1766118900,"t1_arrival":1766119020},"debug":{"feed_timestamp":1766118933}},{"trip_id":"4211316G","train_number":"1316G","direction":"InnerLoop","status":"running","progress":0.5,"location":{"latitude":35.73462,"longitude":139.764125},"segment":{"prev_seq":15,"next_seq":16,"prev_station_id":"JR-East.Yamanote.NishiNippori","next_station_id":"JR-East.Yamanote.Tabata"},"times":{"now_ts":1766118960,"t0_departure":1766118900,"t1_arrival":1766119020},"debug":{"feed_timestamp":1766118933}},{"trip_id":"4211362G","train_number":"1362G","direction":"InnerLoop","status":"running","progress":0.5,"location":{"latitude":35.71032,"longitude":139.77565},"segment":{"prev_seq":11,"next_seq":12,"prev_station_id":"JR-East.Yamanote.Okachimachi","next_station_id":"JR-East.Yamanote.Ueno"},"times":{"now_ts":1766118960,"t0_departure":1766118900,"t1_arrival":1766119020},"debug":{"feed_timestamp":1766118933}},{"trip_id":"4211374G","train_number":"1374G","direction":"InnerLoop","status":"stopped","progress":0.0,"location":{"latitude":35.6663,"longitude":139.75788},"segment":{"prev_seq":6,"next_seq":6,"prev_station_id":"JR-East.Yamanote.Shimbashi","next_station_id":"JR-East.Yamanote.Shimbashi"},"times":{"now_ts":1766118960,"t0_departure":1766118960,"t1_arrival":1766118960},"debug":{"feed_timestamp":1766118933}},{"trip_id":"4201201G","train_number":"1201G","direction":"OuterLoop","status":"stopped","progress":0.0,"location":{"latitude":35.62019,"longitude":139.72816},"segment":{"prev_seq":31,"next_seq":31,"prev_station_id":"JR-East.Yamanote.Osaki","next_station_id":"JR-East.Yamanote.Osaki"},"times":{"now_ts":1766118960,"t0_departure":1766118960,"t1_arrival":1766118960},"debug":{"feed_timestamp":1766118933}},{"trip_id":"4201213G","train_number":"1213G","direction":"OuterLoop","status":"stopped","progress":0.0,"location":{"latitude":35.635395,"longitude":139.740657},"segment":{"prev_seq":29,"next_seq":29,"prev_station_id":"JR-East.Yamanote.TakanawaGateway","next_station_id":"JR-East.Yamanote.TakanawaGateway"},"times":{"now_ts":1766118960,"t0_departure":1766118960,"t1_arrival":1766118960},"debug":{"feed_timestamp":1766118933}},{"trip_id":"4201215G","train_number":"1215G","direction":"OuterLoop","status":"stopped","progress":0.0,"location":{"latitude":35.6663,"longitude":139.75788},"segment":{"prev_seq":26,"next_seq":26,"prev_station_id":"JR-East.Yamanote.Shimbashi","next_station_id":"JR-East.Yamanote.Shimbashi"},"times":{"now_ts":1766118960,"t0_departure":1766118960,"t1_arrival":1766118960},"debug":{"feed_timestamp":1766118933}},{"trip_id":"4201217G","train_number":"1217G","direction":"OuterLoop","status":"running","progress":0.5,"location":{"latitude":35.678105,"longitude":139.76496},"segment":{"prev_seq":24,"next_seq":25,"prev_station_id":"JR-East.Yamanote.Tokyo","next_station_id":"JR-East.Yamanote.Yurakucho"},"times":{"now_ts":1766118960,"t0_departure":1766118900,"t1_arrival":1766119020},"debug":{"feed_timestamp":1766118933}},{"trip_id":"4201219G","train_number":"1219G","direction":"OuterLoop","status":"running","progress":0.5,"location":{"latitude":35.72948,"longitude":139.768845},"segment":{"prev_seq":17,"next_seq":18,"prev_station_id":"JR-East.Yamanote.NishiNippori","next_station_id":"JR-East.Yamanote.Nippori"},"times":{"now_ts":1766118960,"t0_departure":1766118900,"t1_arrival":1766119020},"debug":{"feed_timestamp":1766118933}},{"trip_id":"4201229G","train_number":"1229G","direction":"OuterLoop","status":"running","progress":0.5,"location":{"latitude":35.702685,"longitude":139.77371},"segment":{"prev_seq":21,"next_seq":22,"prev_station_id":"JR-East.Yamanote.Okachimachi","next_station_id":"JR-East.Yamanote.Akihabara"},"times":{"now_ts":1766118960,"t0_departure":1766118900,"t1_arrival":1766119020},"debug":{"feed_timestamp":1766118933}},{"trip_id":"4201303G","train_number":"1303G","direction":"OuterLoop","status":"stopped","progress":0.0,"location":{"latitude":35.67129,"longitude":139.70261},"segment":{"prev_seq":6,"next_seq":6,"prev_station_id":"JR-East.Yamanote.Harajuku","next_station_id":"JR-East.Yamanote.Harajuku"},"times":{"now_ts":1766118960,"t0_departure":1766118960,"t1_arrival":1766118960},"debug":{"feed_timestamp":1766118933}},{"trip_id":"4201305G","train_number":"1305G","direction":"OuterLoop","status":"running","progress":0.5455,"location":{"latitude":35.730811,"longitude":139.72018},"segment":{"prev_seq":12,"next_seq":13,"prev_station_id":"JR-East.Yamanote.Ikebukuro","next_station_id":"JR-East.Yamanote.Otsuka"},"times":{"now_ts":1766118960,"t0_departure":1766118888,"t1_arrival":1766119020},"debug":{"feed_timestamp":1766118933}},{"trip_id":"4201307G","train_number":"1307G","direction":"OuterLoop","status":"running","progress":0.5,"location":{"latitude":35.70671,"longitude":139.701905},"segment":{"prev_seq":9,"next_seq":10,"prev_station_id":"JR-East.Yamanote.ShinOkubo","next_station_id":"JR-East.Yamanote.Takadanobaba"},"times":{"now_ts":1766118960,"t0_departure":1766118900,"t1_arrival":1766119020},"debug":{"feed_timestamp":1766118933}},{"trip_id":"4201311G","train_number":"1311G","direction":"OuterLoop","status":"running","progress":0.5,"location":{"latitude":35.64005,"longitude":139.712745},"segment":{"prev_seq":3,"next_seq":4,"prev_station_id":"JR-East.Yamanote.Meguro","next_station_id":"JR-East.Yamanote.Ebisu"},"times":{"now_ts":1766118960,"t0_departure":1766118900,"t1_arrival":1766119020},"debug":{"feed_timestamp":1766118933}},{"trip_id":"4201323G","train_number":"1323G","direction":"OuterLoop","status":"running","progress":0.5455,"location":{"latitude":35.687153,"longitude":139.701139},"segment":{"prev_seq":7,"next_seq":8,"prev_station_id":"JR-East.Yamanote.Yoyogi","next_station_id":"JR-East.Yamanote.Shinjuku"},"times":{"now_ts":1766118960,"t0_departure":1766118888,"t1_arrival":1766119020},"debug":{"feed_timestamp":1766118933}},{"trip_id":"4201331G","train_number":"1331G","direction":"OuterLoop","status":"running","progress":0.5,"location":{"latitude":35.735335,"longitude":139.7441},"segment":{"prev_seq":14,"next_seq":15,"prev_station_id":"JR-East.Yamanote.Sugamo","next_station_id":"JR-East.Yamanote.Komagome"},"times":{"now_ts":1766118960,"t0_departure":1766118900,"t1_arrival":1766119020},"debug":{"feed_timestamp":1766118933}},{"trip_id":"4201333G","train_number":"1333G","direction":"OuterLoop","status":"running","progress":0.5,"location":{"latitude":35.69546,"longitude":139.70024},"segment":{"prev_seq":8,"next_seq":9,"prev_station_id":"JR-East.Yamanote.Shinjuku","next_station_id":"JR-East.Yamanote.ShinOkubo"},"times":{"now_ts":1766118960,"t0_departure":1766118900,"t1_arrival":1766119020},"debug":{"feed_timestamp":1766118933}}]}